{
"type": "FeatureCollection",
"name": "portland_happy_hour",
"crs": { "type": "name", "properties": { "name": "urn:ogc:def:crs:OGC:1.3:CRS84" } },
"features": [
{ "type": "Feature", "properties": { "name": "Arcadia National Bar", "street": "24 Preble St.", "city": "Portland", "state": "ME", "zip": 4101, "happy_hour": "4-6 p.m. Monday-Thursday", "specials": "$4 drafts and well drinks", "url": "http:\/\/arcadiaportland.com", "review_url": "http:\/\/mainetoday.com\/eat-drink\/bar-guide\/arcadia-national-bar-nerds\/", "lat": 43.6576711, "lon": -70.2605447 }, "geometry": { "type": "Point", "coordinates": [ -70.2605447, 43.6576711 ] } },
{ "type": "Feature", "properties": { "name": "Bayside Bowl", "street": "58 Alder St.", "city": "Portland", "state": "ME", "zip": 4101, "happy_hour": "4-6 p.m. Monday-Thursday and noon to 6 p.m. Friday (on seasonal rooftop deck)", "specials": "Half-price frozen cocktails, $2 Moosehead tall boy, three tacos for $12", "url": "https:\/\/www.baysidebowl.com", "review_url": "http:\/\/mainetoday.com\/eat-drink\/bar-guide\/roof-bayside-bowls-bar-scene-next-level\/", "lat": 43.6598595, "lon": -70.2637451 }, "geometry": { "type": "Point", "coordinates": [ -70.2637451, 43.6598595 ] } },
{ "type": "Feature", "properties": { "name": "Binga's Stadium", "street": "77 Free St.", "city": "Portland", "state": "ME", "zip": 4101, "happy_hour": "4-6 p.m. Monday-Friday (except during Cross Arena and other special events)", "specials": "$3 for any draft, $3 glasses of wine, $5 flights and mugs, $5 happy hour menu", "url": "http:\/\/www.bingasstadium.com", "review_url": "http:\/\/www.pressherald.com\/2011\/12\/29\/as-sports-bars-go-bingas-is-definitely-major-league_2011-12-29\/", "lat": 43.6559137, "lon": -70.2599352 }, "geometry": { "type": "Point", "coordinates": [ -70.2599352, 43.6559137 ] } },
{ "type": "Feature", "properties": { "name": "Blue Spoon", "street": "89 Congress St.", "city": "Portland", "state": "ME", "zip": 4101, "happy_hour": "4:30-6 p.m. Monday-Saturday", "specials": "Wine Time with $3 glasses, $4 draft beers and a small bites menu. Look out for special all-day or all-night Wine Time, known to occur during snowstorms and on Election Day.", "url": "http:\/\/bluespoonme.com\/is_good\/", "review_url": "http:\/\/mainetoday.com\/eat-drink\/bar-guide\/one-portlands-best-drinking-deals-wine-time-blue-spoon\/", "lat": 43.666798, "lon": -70.2470633 }, "geometry": { "type": "Point", "coordinates": [ -70.2470633, 43.666798 ] } },
{ "type": "Feature", "properties": { "name": "Bonfire Country Bar", "street": "37 Wharf St.", "city": "Portland", "state": "ME", "zip": 4101, "happy_hour": "4-7 p.m. daily", "specials": "Free bacon, $1 tacos and Bonfire whiskey, $2 fries and beer, $3 burgers and wine", "url": "http:\/\/www.bonfire.country\/portland.html", "review_url": "http:\/\/mainetoday.com\/eat-drink\/bar-guide\/self-serve-beer-wall-red-solo-cups-lets-not-forget-the-tire-swings-at-bonfire-country-bar-in-portland\/", "lat": 43.6558085, "lon": -70.2542868 }, "geometry": { "type": "Point", "coordinates": [ -70.2542868, 43.6558085 ] } },
{ "type": "Feature", "properties": { "name": "Boone's Fish House & Oyster Room", "street": "86 Commercial St., Custom House Wharf", "city": "Portland", "state": "ME", "zip": 4101, "happy_hour": "4-6 p.m. daily", "specials": "$5 seasonal cocktails, $3 red and white house wine, $2 Shipyard beers and $5 food menu, including Jamaican wings, nachos with salsa, Brussels sprouts and fried calamari", "url": "http:\/\/www.boonesfishhouse.com", "review_url": null, "lat": 43.656756, "lon": -70.25015 }, "geometry": { "type": "Point", "coordinates": [ -70.25015, 43.656756 ] } },
{ "type": "Feature", "properties": { "name": "Bramhall", "street": "767 Congress St.", "city": "Portland", "state": "ME", "zip": 4101, "happy_hour": "4-6 p.m. Monday-Friday, from 7-9 p.m. for hospital staff", "specials": "$5 Allagash, $2 Miller High Life, $4 house wine, $3 deviled eggs (changing flavors) and homemade rice crispy treats", "url": "http:\/\/www.bramhallme.com", "review_url": "http:\/\/mainetoday.com\/eat-drink\/a-place-to-hide-and-imbibe-at-bramhall-n-portland\/", "lat": 43.6537458, "lon": -70.2713911 }, "geometry": { "type": "Point", "coordinates": [ -70.2713911, 43.6537458 ] } },
{ "type": "Feature", "properties": { "name": "BRGR Bar", "street": "11 Brown St.", "city": "Portland", "state": "ME", "zip": 4101, "happy_hour": "3-6 p.m. Monday-Friday", "specials": "Half-off all drafts, $8 specialty cocktails and adult milkshakes, $6 house red and white wines and The Drop canned rose, $6 loaded tots and fries", "url": "https:\/\/www.brgr-bar.com\/", "review_url": null, "lat": 43.6562144, "lon": -70.2597884 }, "geometry": { "type": "Point", "coordinates": [ -70.2597884, 43.6562144 ] } },
{ "type": "Feature", "properties": { "name": "Brian Boru", "street": "57 Center St.", "city": "Portland", "state": "ME", "zip": 4101, "happy_hour": "4-7 p.m. Monday-Friday", "specials": "$4 well drinks, house wine and Geary's Pale Ale drafts", "url": "http:\/\/www.brianboruportland.com\/", "review_url": "http:\/\/mainetoday.com\/eat-drink\/bar-guide\/brian-boru-familiar-old-friend-portland\/", "lat": 43.6553043, "lon": -70.2574943 }, "geometry": { "type": "Point", "coordinates": [ -70.2574943, 43.6553043 ] } },
{ "type": "Feature", "properties": { "name": "Bull Feeney's", "street": "375 Fore St.", "city": "Portland", "state": "ME", "zip": 4101, "happy_hour": "4-7 p.m. Sunday-Friday", "specials": "$5 glasses of wine, $4 drafts, 20 percent off whiskey, free bacon and cheese on Thursdays and Fridays from 5-6 p.m.", "url": "http:\/\/www.bullfeeneys.com", "review_url": null, "lat": 43.6566615, "lon": -70.2530519 }, "geometry": { "type": "Point", "coordinates": [ -70.2530519, 43.6566615 ] } },
{ "type": "Feature", "properties": { "name": "Congress Squared (C2)", "street": "157 High St.", "city": "Portland", "state": "ME", "zip": 4101, "happy_hour": "4-7 p.m. daily", "specials": "Specially priced drinks and appetizers", "url": "http:\/\/www.congresssquared.com", "review_url": "http:\/\/mainetoday.com\/eat-drink\/bar-guide\/congress-squareds-cocktails-prove-size-matters\/", "lat": 43.6546866, "lon": -70.2639814 }, "geometry": { "type": "Point", "coordinates": [ -70.2639814, 43.6546866 ] } },
{ "type": "Feature", "properties": { "name": "The Corner Room", "street": "110 Exchange St.", "city": "Portland", "state": "ME", "zip": 4101, "happy_hour": "4-6 p.m. Monday-Friday", "specials": "Complimentary antipasto offered with drinks, $3 house red\/white wines and prosecco, $3 draft beers", "url": "http:\/\/www.thecornerroomkitchenandbar.com", "review_url": "http:\/\/mainetoday.com\/eat-drink\/bar-guide\/the-perfect-place-to-visit-for-an-after-work-drink-the-corner-room-in-portland\/", "lat": 43.6583896, "lon": -70.2560618 }, "geometry": { "type": "Point", "coordinates": [ -70.2560618, 43.6583896 ] } },
{ "type": "Feature", "properties": { "name": "David's", "street": "22 Monument Square", "city": "Portland", "state": "ME", "zip": 4101, "happy_hour": "3-6 p.m. Monday-Friday", "specials": "$5 infused cocktails, sangria, well martinis and Manhattans, $4 house wines and well cocktails, $3 local beers, plus specially priced appetizers", "url": "http:\/\/davidsrestaurant.com", "review_url": null, "lat": 43.6570092, "lon": -70.2588992 }, "geometry": { "type": "Point", "coordinates": [ -70.2588992, 43.6570092 ] } },
{ "type": "Feature", "properties": { "name": "DiMillo's on the Water", "street": "25 Long Wharf", "city": "Portland", "state": "ME", "zip": 4101, "happy_hour": "4-7 p.m. Monday-Friday, not offered in summer", "specials": "$1 off drinks and discounted appetizers", "url": "http:\/\/www.dimillos.com\/restaurant\/index.html#", "review_url": "http:\/\/mainetoday.com\/eat-drink\/bar-guide\/strong-drinks-stately-boat-hit-happy-hour-dimillos-portland-institution\/", "lat": 43.655142, "lon": -70.251173 }, "geometry": { "type": "Point", "coordinates": [ -70.251173, 43.655142 ] } },
{ "type": "Feature", "properties": { "name": "Downtown Lounge", "street": "606 Congress St.", "city": "Portland", "state": "ME", "zip": 4101, "happy_hour": "5-7 daily", "specials": "$3.50 well drinks and drafts, $11 pitchers, half-off appetizers", "url": null, "review_url": "http:\/\/mainetoday.com\/eat-drink\/bar-guide\/get-cross-dive-bar-diner-downtown-lounge\/", "lat": 43.6536497, "lon": -70.2634469 }, "geometry": { "type": "Point", "coordinates": [ -70.2634469, 43.6536497 ] } },
{ "type": "Feature", "properties": { "name": "East Ender", "street": "47 Middle St.", "city": "Portland", "state": "ME", "zip": 4101, "happy_hour": "3:30-6 p.m. Tuesday-Saturday, 3-6 p.m. Sunday", "specials": "$6 cocktails, $5 rose, $5 craft drafts, $4 wine, $2 Miller High Life, $4 appetizers (chili cheese fries, fried Brussels sprouts, chicken wings and more), half-priced burger", "url": "http:\/\/eastenderportland.com", "review_url": "http:\/\/mainetoday.com\/eat-drink\/portlands-east-ender-has-a-new-cleverly-crafted-cocktail-list\/", "lat": 43.6602159, "lon": -70.2504876 }, "geometry": { "type": "Point", "coordinates": [ -70.2504876, 43.6602159 ] } },
{ "type": "Feature", "properties": { "name": "El Rayo", "street": "26 Free St.", "city": "Portland", "state": "ME", "zip": 4101, "happy_hour": "4-6 p.m. Monday-Friday", "specials": "$5 house margaritas and sangria, $2 Sol Pacfico or Tecate", "url": "http:\/\/elrayotaqueria.com\/", "review_url": "http:\/\/mainetoday.com\/eat-drink\/bar-guide\/deck-seating-happy-hour-still-place-el-rayos-portland-location-continues-please\/", "lat": 43.6565783, "lon": -70.2577239 }, "geometry": { "type": "Point", "coordinates": [ -70.2577239, 43.6565783 ] } },
{ "type": "Feature", "properties": { "name": "The Grill Room", "street": "84 Exchange St.", "city": "Portland", "state": "ME", "zip": 4101, "happy_hour": "4-6 p.m. daily", "specials": "Draft beers, wines by the glass and bar snacks for $3", "url": "http:\/\/www.thegrillroomandbar.com", "review_url": "http:\/\/www.pressherald.com\/2013\/11\/06\/bar_guide__grill_room_\/", "lat": 43.657985, "lon": -70.2553344 }, "geometry": { "type": "Point", "coordinates": [ -70.2553344, 43.657985 ] } },
{ "type": "Feature", "properties": { "name": "Hot Suppa", "street": "703 Congress St.", "city": "Portland", "state": "ME", "zip": 4101, "happy_hour": "4-6 p.m. Tuesday-Saturday", "specials": "All drinks $1 off, $1 oysters", "url": "http:\/\/hotsuppa.com", "review_url": "http:\/\/www.pressherald.com\/2013\/10\/24\/bar_guide__not_just_brunch_haven__hot_suppa_has_a_cool_happy_hour_\/", "lat": 43.6531597, "lon": -70.2684045 }, "geometry": { "type": "Point", "coordinates": [ -70.2684045, 43.6531597 ] } },
{ "type": "Feature", "properties": { "name": "The King's Head", "street": "254 Commercial St.", "city": "Portland", "state": "ME", "zip": 4101, "happy_hour": "11:30 a.m. to 6 p.m. Monday-Thursday", "specials": "$4 Allagash White, Jack's Abby, Murphy's Irish Stout and Weihenstephaner, $3 haddock and beef tacos, $2 chicken, pork and veggie tacos", "url": "http:\/\/www.thekingsheadportland.com", "review_url": "http:\/\/mainetoday.com\/eat-drink\/bar-guide\/theres-comfort-beer-kings-head-portland-will-40-taps-featuring-beer-cant-get-elsewhere\/", "lat": 43.6535832, "lon": -70.2541198 }, "geometry": { "type": "Point", "coordinates": [ -70.2541198, 43.6535832 ] } },
{ "type": "Feature", "properties": { "name": "Lazzari", "street": "618 Congress St.", "city": "Portland", "state": "ME", "zip": 4101, "happy_hour": "4-7 p.m. Monday-Friday", "specials": "$3.50 Lagunitas IPA and Birra Moretti drafts, $5 prosecco, red and white wines", "url": "https:\/\/www.facebook.com\/Lazzari-1060083567425818\/", "review_url": "http:\/\/mainetoday.com\/eat-drink\/bar-guide\/drink-bellinis-night-eat-pizza-long-awaited-lazzari\/", "lat": 43.6535403, "lon": -70.263876 }, "geometry": { "type": "Point", "coordinates": [ -70.263876, 43.6535403 ] } },
{ "type": "Feature", "properties": { "name": "Little Tap House", "street": "106 High St.", "city": "Portland", "state": "ME", "zip": 4101, "happy_hour": "4-7 p.m. Monday-Friday", "specials": "$5 specials include daily Bar & Barrel (petite appetizer paired with a local beer), glasses of red and white wine, a select local draft and house liquor", "url": "https:\/\/www.littletaphouse.com", "review_url": "http:\/\/www.pressherald.com\/2013\/05\/16\/little-tap-house-nicely-lighted-conveniently-sited-_2013-05-16\/", "lat": 43.65317, "lon": -70.26216 }, "geometry": { "type": "Point", "coordinates": [ -70.26216, 43.65317 ] } },
{ "type": "Feature", "properties": { "name": "Local 188", "street": "685 Congress St.", "city": "Portland", "state": "ME", "zip": 4101, "happy_hour": "4-6 p.m. and 10 p.m. to close Monday-Friday", "specials": "$4 house red and white wine, Allagash White, Bunker draft and cider, $5 fresca (infusion with soda water and simple syrup), $4 deviled eggs, olives, anchovies and patatas bravas", "url": "http:\/\/www.local188.com", "review_url": "http:\/\/mainetoday.com\/eat-drink\/bar-guide\/local-188-hasnt-lost-cool\/", "lat": 43.6531758, "lon": -70.2675636 }, "geometry": { "type": "Point", "coordinates": [ -70.2675636, 43.6531758 ] } },
{ "type": "Feature", "properties": { "name": "Maps", "street": "64 Market St.", "city": "Portland", "state": "ME", "zip": 4101, "happy_hour": "4-7 p.m. Wednesday-Sunday", "specials": "$1 off drafts and glasses of wine, $10 mini pitchers (32 oz) of any draft", "url": "https:\/\/www.facebook.com\/portlandmaine.MAPS\/", "review_url": "http:\/\/mainetoday.com\/eat-drink\/bar-guide\/beer-cake-grilled-cheese-maps-market-street\/", "lat": 43.6575322, "lon": -70.2538572 }, "geometry": { "type": "Point", "coordinates": [ -70.2538572, 43.6575322 ] } },
{ "type": "Feature", "properties": { "name": "Margaritas", "street": "242 St. John St.", "city": "Portland", "state": "ME", "zip": 4101, "happy_hour": "3-6 p.m. Monday-Friday", "specials": "$5 raspberry, strawberry, mango and house margaritas, $3 Bud Light (20 oz) and Tecate (16 oz), $6 select appetizers", "url": "https:\/\/www.margs.com\/", "review_url": null, "lat": 43.6513384, "lon": -70.2791871 }, "geometry": { "type": "Point", "coordinates": [ -70.2791871, 43.6513384 ] } },
{ "type": "Feature", "properties": { "name": "MJ's Wine Bar", "street": "One City Center", "city": "Portland", "state": "ME", "zip": 4101, "happy_hour": "4-6 p.m. Monday-Friday", "specials": "$5 select wine and beer", "url": "http:\/\/www.onecitywines.com", "review_url": "http:\/\/mainetoday.com\/eat-drink\/bar-guide\/mjs-wine-bar-portland-offers-happy-hour-please-novice-experienced-wine-drinker\/", "lat": 43.6576211, "lon": -70.2573989 }, "geometry": { "type": "Point", "coordinates": [ -70.2573989, 43.6576211 ] } },
{ "type": "Feature", "properties": { "name": "The North Point", "street": "35 Silver St.", "city": "Portland", "state": "ME", "zip": 4101, "happy_hour": "4-6 p.m. Monday-Friday", "specials": "$7 cocktail special, $6 wine, $5 drafts and $6 lite bites menu", "url": "http:\/\/northpointportland.com", "review_url": "http:\/\/mainetoday.com\/eat-drink\/savvy-brothers-make-north-point-hot-portland-destination\/", "lat": 43.6574594, "lon": -70.2527338 }, "geometry": { "type": "Point", "coordinates": [ -70.2527338, 43.6574594 ] } },
{ "type": "Feature", "properties": { "name": "Old Port Sea Grill", "street": "93 Commercial St.", "city": "Portland", "state": "ME", "zip": 4101, "happy_hour": "3-6 p.m. Monday-Saturday, open to close Sunday", "specials": "$6 wines by the glass, $5 Cosmos and Manhattans, $3 draft beers, $2.50 oysters", "url": "http:\/\/www.oldportseagrill.com\/old_port\/default.aspx", "review_url": "http:\/\/mainetoday.com\/eat-drink\/bar-guide\/old-port-sea-grills-cocktail-list-wine-offerings-reflect-portlands-creative-flair-knack-good-taste\/", "lat": 43.6573362, "lon": -70.2506683 }, "geometry": { "type": "Point", "coordinates": [ -70.2506683, 43.6573362 ] } },
{ "type": "Feature", "properties": { "name": "Otto", "street": "576 and 225 Congress St.", "city": "Portland", "state": "ME", "zip": 4101, "happy_hour": "4-6 p.m. Monday-Thursday", "specials": "$4 beers, $5 wine, free slice of pizza with first drink purchase", "url": "http:\/\/www.ottoportland.com", "review_url": null, "lat": 43.6631862, "lon": -70.2514618 }, "geometry": { "type": "Point", "coordinates": [ -70.2514618, 43.6631862 ] } },
{ "type": "Feature", "properties": { "name": "Pai Men Miyake", "street": "188 State St.", "city": "Portland", "state": "ME", "zip": 4101, "happy_hour": "4-6 p.m. Monday-Friday and (except in summer) 9:30-midnight daily", "specials": "$5 house wine (pinot noir or vino verde), $5 10-ounce carafe of hot or cold sake, $4 featured draft, $3 Japanese draft", "url": "http:\/\/www.miyakerestaurants.com\/menus\/paimen\/", "review_url": "http:\/\/mainetoday.com\/eat-drink\/bar-guide\/feeling-sour-might-like-cocktails-pai-men-miyake\/", "lat": 43.6528449, "lon": -70.2669587 }, "geometry": { "type": "Point", "coordinates": [ -70.2669587, 43.6528449 ] } },
{ "type": "Feature", "properties": { "name": "Pat's Pizza", "street": "30 Market St.", "city": "Portland", "state": "ME", "zip": 4101, "happy_hour": "4-6 p.m. Monday-Thursday", "specials": "$2 Coors Light, PBR, Bud Light, $3 Shipyard Export, house wines and select appetizers, $5 well drinks", "url": "http:\/\/www.patspizzaoldport.com", "review_url": null, "lat": 43.6568462, "lon": -70.2530767 }, "geometry": { "type": "Point", "coordinates": [ -70.2530767, 43.6568462 ] } },
{ "type": "Feature", "properties": { "name": "Petite Jacqueline", "street": "46 Market St.", "city": "Portland", "state": "ME", "zip": 4101, "happy_hour": "5-6 p.m. daily", "specials": "$5 well martinis, $4 draft beers, $3 wine", "url": "http:\/\/bistropj.com\/", "review_url": "http:\/\/mainetoday.com\/eat-drink\/bar-guide\/quiet-cocktail-touch-je-ne-sais-quoi-petite-jacqueline\/", "lat": 43.6572447, "lon": -70.2535593 }, "geometry": { "type": "Point", "coordinates": [ -70.2535593, 43.6572447 ] } },
{ "type": "Feature", "properties": { "name": "Portland Hunt & Alpine Club", "street": "75 Market St.", "city": "Portland", "state": "ME", "zip": 4101, "happy_hour": "Open to 6 p.m. Monday-Friday", "specials": "$6 cocktails, special food menu", "url": "http:\/\/huntandalpineclub.com", "review_url": "http:\/\/www.pressherald.com\/2013\/10\/17\/bar_guide__hunt___alpine_club_craftily_targets_cocktail_lovers_\/", "lat": 43.658114, "lon": -70.2543135 }, "geometry": { "type": "Point", "coordinates": [ -70.2543135, 43.658114 ] } },
{ "type": "Feature", "properties": { "name": "Ri Ra Irish Pub", "street": "72 Commercial St.", "city": "Portland", "state": "ME", "zip": 4101, "happy_hour": "3-6 p.m. Monday-Friday", "specials": "$7 appetizers", "url": "https:\/\/rira.com\/portland\/", "review_url": "http:\/\/mainetoday.com\/eat-drink\/bar-guide\/yes-its-one-of-a-chain-but-youll-find-originality-fun-and-the-perfect-guinness-pour-at-ri-ra-in-portland\/", "lat": 43.6572366, "lon": -70.2499322 }, "geometry": { "type": "Point", "coordinates": [ -70.2499322, 43.6572366 ] } },
{ "type": "Feature", "properties": { "name": "Rivalries", "street": "10 Cotton St.", "city": "Portland", "state": "ME", "zip": 4101, "happy_hour": "3-6 p.m. Monday-Friday", "specials": "$4 wine, $4 Goose Island drafts, $3 Bud Light, daily food specials", "url": "http:\/\/rivalriesmaine.com\/", "review_url": "http:\/\/www.pressherald.com\/2012\/07\/19\/rivalries-is-a-champ-in-the-sports-pub-arena_2012-07-19\/", "lat": 43.6551785, "lon": -70.2570164 }, "geometry": { "type": "Point", "coordinates": [ -70.2570164, 43.6551785 ] } },
{ "type": "Feature", "properties": { "name": "Samuel's", "street": "1160 Forest Ave.", "city": "Portland", "state": "ME", "zip": 4101, "happy_hour": "2-6 p.m. daily", "specials": "$2 domestic drafts, $3 craft and import drafts, free pizza until 5 p.m. on Wednesday and Thursday", "url": "https:\/\/www.facebook.com\/samuelsbarandgrill\/", "review_url": "http:\/\/mainetoday.com\/eat-drink\/samuels-can-stuff-face-without-emptying-wallet\/", "lat": 43.6868455, "lon": -70.2929801 }, "geometry": { "type": "Point", "coordinates": [ -70.2929801, 43.6868455 ] } },
{ "type": "Feature", "properties": { "name": "Sebago Brewing Co.", "street": "211 Fore St.", "city": "Portland", "state": "ME", "zip": 4101, "happy_hour": "4-7 p.m. Monday-Friday", "specials": "$1 off pints and talls, $7 appetizers", "url": "http:\/\/www.sebagobrewing.com\/brewpubs\/portland-brewpub\/", "review_url": "http:\/\/mainetoday.com\/eat-drink\/bar-guide-sebagos-portland-brewpub-keeps-beer-specials-right\/", "lat": 43.6591442, "lon": -70.2508032 }, "geometry": { "type": "Point", "coordinates": [ -70.2508032, 43.6591442 ] } },
{ "type": "Feature", "properties": { "name": "Slab", "street": "25 Preble St.", "city": "Portland", "state": "ME", "zip": 4101, "happy_hour": "3-5 p.m. Monday-Friday", "specials": "$1 off beer, wine and well drinks, half-priced hand slabs", "url": "https:\/\/www.slabportland.com", "review_url": "http:\/\/mainetoday.com\/eat-drink\/bar-guide\/addictive-sicilian-slab-plus-incredible-beer-cocktail-menu-slab-portland\/", "lat": 43.6582703, "lon": -70.2603771 }, "geometry": { "type": "Point", "coordinates": [ -70.2603771, 43.6582703 ] } },
{ "type": "Feature", "properties": { "name": "The Snug", "street": "223 Congress St.", "city": "Portland", "state": "ME", "zip": 4101, "happy_hour": "4-6 p.m. daily", "specials": "$2 off everything", "url": "http:\/\/thesnugpub.com", "review_url": "http:\/\/www.pressherald.com\/2012\/09\/20\/people-love-the-snug-because-it-feels-like-home_2012-09-20\/", "lat": 43.6632941, "lon": -70.2514023 }, "geometry": { "type": "Point", "coordinates": [ -70.2514023, 43.6632941 ] } },
{ "type": "Feature", "properties": { "name": "Sur Lie", "street": "11 Free St.", "city": "Portland", "state": "ME", "zip": 4101, "happy_hour": "4-6 p.m. Tuesday-Sunday", "specials": "$2 off local drafts, $6 red and white wines, $7 cocktails, $4-$7 appetizers", "url": "http:\/\/www.sur-lie.com", "review_url": "http:\/\/mainetoday.com\/eat-drink\/bar-guide\/sur-lie-in-portland-is-the-ideal-place-for-a-sophisticated-evening-excellent-cocktail-and-a-reasonably-priced-bite\/", "lat": 43.6569915, "lon": -70.2578494 }, "geometry": { "type": "Point", "coordinates": [ -70.2578494, 43.6569915 ] } },
{ "type": "Feature", "properties": { "name": "Taco Escobarr", "street": "548 Congress St.", "city": "Portland", "state": "ME", "zip": 4101, "happy_hour": "4-7 p.m. Monday-Friday", "specials": "$5 house margaritas, $3.50 select drafts, free chips and salsa", "url": "http:\/\/www.tacoescobarr.com\/", "review_url": "http:\/\/www.pressherald.com\/2012\/05\/31\/at-taco-escobarr-drinks-food-and-prices-are-hard-to-beat_2012-05-31\/", "lat": 43.6553, "lon": -70.2615582 }, "geometry": { "type": "Point", "coordinates": [ -70.2615582, 43.6553 ] } },
{ "type": "Feature", "properties": { "name": "Terlingua", "street": "52 Washington Ave.", "city": "Portland", "state": "ME", "zip": 4101, "happy_hour": "2-6 p.m. daily", "specials": "$5 house margarita, sangria, Michelada and Bloody Maria, $6 glass\/$18 half carafe\/$24 carafe of house wines, $5 UFF Dry Cidah, $3 Modelo Especial and PBR, bar snack menu until 5 p.m.", "url": "http:\/\/www.terlingua.me", "review_url": "http:\/\/mainetoday.com\/eat-drink\/mexican-style-drinks-25-bottles-of-wine-smoked-meats-at-terlingua-in-portland\/", "lat": 43.66499, "lon": -70.2521297 }, "geometry": { "type": "Point", "coordinates": [ -70.2521297, 43.66499 ] } },
{ "type": "Feature", "properties": { "name": "The Thirsty Pig", "street": "37 Exchange St.", "city": "Portland", "state": "ME", "zip": 4101, "happy_hour": "4-6 p.m. Monday-Friday", "specials": "$4 Allagash and Shipyard", "url": "http:\/\/www.thirstypigportland.com\/", "review_url": "http:\/\/mainetoday.com\/eat-drink\/bar-guide\/craft-beer-delicious-handmade-sausages-thirsty-pig-portland\/", "lat": 43.6573075, "lon": -70.2538411 }, "geometry": { "type": "Point", "coordinates": [ -70.2538411, 43.6573075 ] } },
{ "type": "Feature", "properties": { "name": "Timber Steakhouse & Rotisserie", "street": "106 Exchange St.", "city": "Portland", "state": "ME", "zip": 4101, "happy_hour": "4-6 p.m. Monday-Friday", "specials": "$4 select draft beer; $5 wine by the glass; $6 appetizers; $6 select specialty cocktails", "url": "https:\/\/www.timbersteakhouse.com", "review_url": "http:\/\/mainetoday.com\/eat-drink\/timber-gives-portland-upscale-steakhouse-also-great-cocktails-snacks-patio\/", "lat": 43.6583907, "lon": -70.2559711 }, "geometry": { "type": "Point", "coordinates": [ -70.2559711, 43.6583907 ] } },
{ "type": "Feature", "properties": { "name": "Tipo", "street": "182 Ocean Ave.", "city": "Portland", "state": "ME", "zip": 4101, "happy_hour": "4-6 p.m. Wednesday-Sunday", "specials": "$1 off draft beers, $8 prosecco, pinot grigio and pinot noir, $8 food menu, including meatballs and margarita pizza", "url": "http:\/\/www.tiporestaurant.com", "review_url": null, "lat": 43.6775682, "lon": -70.2810466 }, "geometry": { "type": "Point", "coordinates": [ -70.2810466, 43.6775682 ] } },
{ "type": "Feature", "properties": { "name": "Tiqa", "street": "327 Commercial St.", "city": "Portland", "state": "ME", "zip": 4101, "happy_hour": "4-6 p.m. Monday-Friday", "specials": "$5 house red and white wines and prosecco, $1 off select drafts, half-price bar plates", "url": "http:\/\/tiqa.net\/restaurant\/", "review_url": "http:\/\/mainetoday.com\/eat-drink\/bar-guide\/exquisite-and-upscale-tiqa-in-portland-features-uncommon-wines-from-around-the-world\/", "lat": 43.6527831, "lon": -70.2565965 }, "geometry": { "type": "Point", "coordinates": [ -70.2565965, 43.6527831 ] } },
{ "type": "Feature", "properties": { "name": "Vignola Cinque Terre", "street": "10 Dana St.", "city": "Portland", "state": "ME", "zip": 4101, "happy_hour": "5-6 p.m. daily", "specials": "Half off draft beers, $4 select wines, $3.50-$9.50 appetizers", "url": "http:\/\/vignolamaine.com", "review_url": "http:\/\/www.pressherald.com\/2013\/08\/15\/two-in-1-vignola-cinque-terre-the-best-of-old-world_2013-08-15\/", "lat": 43.655842, "lon": -70.253719 }, "geometry": { "type": "Point", "coordinates": [ -70.253719, 43.655842 ] } },
{ "type": "Feature", "properties": { "name": "Top of the East", "street": "157 High St. (Westin Portland Harborview)", "city": "Portland", "state": "ME", "zip": 4101, "happy_hour": "2-5 p.m. Sunday-Thursday", "specials": "$6 wines (rotating red, white and rose), $4 rotating bottled beer, half off chips with French onion dip, pretzels with beer mustard and seasonal flatbread", "url": "http:\/\/www.thetopoftheeast.com", "review_url": "http:\/\/www.pressherald.com\/2014\/02\/06\/bar_guide__gussied_up_top_of_the_east_still_boasts_big_view_\/", "lat": 43.6548418, "lon": -70.2640432 }, "geometry": { "type": "Point", "coordinates": [ -70.2640432, 43.6548418 ] } },
{ "type": "Feature", "properties": { "name": "Zen Chinese Bistro", "street": "45 Danforth St.", "city": "Portland", "state": "ME", "zip": 4101, "happy_hour": "4-6 p.m. Monday-Friday", "specials": "Drink and appetizer specials", "url": "http:\/\/www.zenchinesebistro.com\/", "review_url": "http:\/\/mainetoday.com\/eat-drink\/bar-guide\/zens-happy-hour-happy-medium-old-school-trendy\/", "lat": 43.6533369, "lon": -70.2585981 }, "geometry": { "type": "Point", "coordinates": [ -70.2585981, 43.6533369 ] } }
]
}
